[{"id":"1","post_code":"01001","name":"Adrar","wilaya_id":"1", "ar_name":"أدرار", "longitude":"27.9763317", "latitude":"-0.4841573"},
 {"id":"2","post_code":"01002","name":"Tamest","wilaya_id":"1", "ar_name":"تأماست", "longitude":"27.4257197","latitude":"-0.2807673"},
 {"id":"3","post_code":"01003","name":"Charouine","wilaya_id":"1", "ar_name":"شروين", "longitude":"29.0189483", "latitude":"-0.2690792"},
 {"id":"4","post_code":"01004","name":"Reggane","wilaya_id":"1", "ar_name":"رڨان", "longitude":"25.4775826", "latitude":"-4.3665328"},
 {"id":"5","post_code":"01005","name":"In Zghmir","wilaya_id":"1", "ar_name":"ان زغمير", "longitude":"25.8711501", "latitude":"-6.252223"},
 {"id":"6","post_code":"01006","name":"Tit","wilaya_id":"1", "ar_name":"تــيـــت", "longitude":"26.9368382", "latitude":"1.481824"},
 {"id":"7","post_code":"01007","name":"Ksar Kaddour","wilaya_id":"1", "ar_name":"قصر قدور", "longitude":"29.5798013", "latitude":"0.3643512"},
 {"id":"8","post_code":"01008","name":"Tsabit","wilaya_id":"1", "ar_name":"تسابيت", "longitude":"28.3533514", "latitude":"-0.2255095"},
 {"id":"9","post_code":"01009","name":"Timimoun","wilaya_id":"1", "ar_name":"تيميمون", "longitude":"29.2536341", "latitude":"0.218653"},
 {"id":"10","post_code":"01010","name":"Ouled Said","wilaya_id":"1", "ar_name":"أولاد سعيد", "longitude":"29.4217292", "latitude":"0.2254341"},
 {"id":"11","post_code":"01011","name":"Zaouiet Kounta","wilaya_id":"1", "ar_name":"زاوية كنتة", "longitude":"27.2293681", "latitude":"-0.2202846"},
 {"id":"12","post_code":"01012","name":"Aoulef","wilaya_id":"1", "ar_name":"أولف", "longitude":"26.9710733", "latitude":"1.059451"},
 {"id":"13","post_code":"01013","name":"Timokten","wilaya_id":"1", "ar_name":"تيمقتن", "longitude":"27.0221605", "latitude":"1.0255048"},
 {"id":"14","post_code":"01014","name":"Tamentit","wilaya_id":"1", "ar_name":"تامنطيت", "longitude":"27.764557", "latitude":"-0.2722121"},
 {"id":"15","post_code":"01015","name":"Fenoughil","wilaya_id":"1", "ar_name":"فنوغيل", "longitude":"27.6489014", "latitude":"-0.3155995"},
 {"id":"16","post_code":"01016","name":"Tinerkouk","wilaya_id":"1", "ar_name":"زاوية دباغ", "longitude":"29.708777", "latitude":"0.6955288"},
 {"id":"17","post_code":"01017","name":"Deldoul","wilaya_id":"1", "ar_name":"دﻟﺪول", "longitude":"34.2080511", "latitude":"3.2543828"},
 {"id":"18","post_code":"01018","name":"Sali","wilaya_id":"1", "ar_name":"سالى", "longitude":"26.7370315", "latitude":"-2.8517184"},
 {"id":"19","post_code":"01019","name":"Akabli","wilaya_id":"1", "ar_name":"أقبلي", "longitude":"26.7057062", "latitude":"1.344838"},
 {"id":"20","post_code":"01020","name":"Metarfa","wilaya_id":"1", "ar_name":"المطارفة", "longitude":"28.5978205", "latitude":"-0.1587011"},
 {"id":"21","post_code":"01021","name":"Ouled Ahmed Tammi","wilaya_id":"1", "ar_name":"أولاد أحمد تيمى", "longitude":"27.9766155", "latitude":"-0.20396"},
 {"id":"22","post_code":"01022","name":"Bouda","wilaya_id":"1", "ar_name":"بودة", "longitude":"27.9779233", "latitude":"-0.4533424"},
 {"id":"23","post_code":"01023","name":"Aougrout","wilaya_id":"1", "ar_name":"أوقروت", "longitude":"28.7499992", "latitude":"0.2412452"},
 {"id":"24","post_code":"01024","name":"Talmine","wilaya_id":"1", "ar_name":"", "longitude":"27.9766155", "latitude":"-0.20396"},
 {"id":"25","post_code":"01025","name":"Bordj Badji Mokhtar","wilaya_id":"1", "ar_name":"برج باجي مختار", "longitude":"22.9676154", "latitude":"-3.946422"},
 {"id":"26","post_code":"01026","name":"Sbaa","wilaya_id":"1", "ar_name":"السبع", "longitude":"28.2112372", "latitude":"-0.1862527"},
 {"id":"27","post_code":"01027","name":"Ouled Aissa","wilaya_id":"1", "ar_name":"أولاد عيسى", "longitude":"29.4201586", "latitude":"-0.104542"},
 {"id":"28","post_code":"01028","name":"Timiaouine","wilaya_id":"1", "ar_name":"تيمياوين", "longitude":"20.9259001", "latitude":"0.7958642"},
 {"id":"29","post_code":"02001","name":"Chlef","wilaya_id":"2",  "ar_name":"الشلف", "longitude":"36.1691042", "latitude":"1.2838598"},
 {"id":"30","post_code":"02002","name":"Tenes","wilaya_id":"2",  "ar_name":"تنس", "longitude":"36.508324", "latitude":"1.2426542"},
 {"id":"31","post_code":"02003","name":"Benairia","wilaya_id":"2", "ar_name":"بنايرية", "longitude":"36.3849733", "latitude":"1.3150523"},
 {"id":"32","post_code":"02004","name":"El Karimia","wilaya_id":"2", "ar_name":"الكريمية", "longitude":"36.0774092", "latitude":"1.5112398"},
 {"id":"33","post_code":"02005","name":"Tadjna","wilaya_id":"2", "ar_name":"تاجنة", "longitude":"36.3240803", "latitude":"1.1303901"},
 {"id":"34","post_code":"02006","name":"Taougrite","wilaya_id":"2", "ar_name":"تاوقريت", "longitude":"36.2460876", "latitude":"0.8993445"},
 {"id":"35","post_code":"02007","name":"Beni Haoua","wilaya_id":"2", "ar_name":"بني حواء", "longitude":"36.4938241", "latitude":"1.5198873"},
 {"id":"36","post_code":"02008","name":"Sobha","wilaya_id":"2", "ar_name":"صبحة", "longitude":"36.1084781", "latitude":"1.1017012"},
 {"id":"37","post_code":"02009","name":"Harchoun","wilaya_id":"2", "ar_name":"حرشون", "longitude":"36.1184786", "latitude":"1.4187143"},
 {"id":"38","post_code":"02010","name":"Ouled Fares","wilaya_id":"2", "ar_name":"أولاد فارس", "longitude":"36.2302131", "latitude":"1.0951463"},
 {"id":"39","post_code":"02011","name":"Sidi Akacha","wilaya_id":"2", "ar_name":"سيدي عكاشة", "longitude":"36.4357802", "latitude":"1.2554858"},
 {"id":"40","post_code":"02012","name":"Boukadir","wilaya_id":"2", "ar_name":"بوقدير", "longitude":"36.0617947", "latitude":"1.1083316"},
 {"id":"41","post_code":"02013","name":"Beni Rached","wilaya_id":"2", "ar_name":"بني راشد", "longitude":"36.2930145", "latitude":"1.4611361"},
 {"id":"42","post_code":"02014","name":"Talassa","wilaya_id":"2", "ar_name":"تلعصة", "longitude":"36.4266341", "latitude":"1.0790634"},
 {"id":"43","post_code":"02015","name":"Herenfa","wilaya_id":"2", "ar_name":"الهرنفة", "longitude":"36.2438569", "latitude":"1.0440444"},
 {"id":"44","post_code":"02016","name":"Oued Goussine","wilaya_id":"2", "ar_name":"واد ڨوسين", "longitude":"36.4949721", "latitude":"1.3928579"},
 {"id":"45","post_code":"02017","name":"Dahra","wilaya_id":"2", "ar_name":"الظهرة", "longitude":"36.2551398", "latitude":"0.8432006"},
 {"id":"46","post_code":"02018","name":"Ouled Abbes","wilaya_id":"2", "ar_name":"أولاد عباس", "longitude":"36.2139534", "latitude":"1.4578336"},
 {"id":"47","post_code":"02019","name":"Sendjas","wilaya_id":"2", "ar_name":"سنجاس", "longitude":"36.0396831", "latitude":"1.2713566"},
 {"id":"48","post_code":"02020","name":"Zeboudja","wilaya_id":"2", "ar_name":"الزبوجة", "longitude":"36.3910799", "latitude":"1.3907765"},
 {"id":"49","post_code":"02021","name":"Oued Sly","wilaya_id":"2", "ar_name":"واد سلي", "longitude":"36.0806537", "latitude":"1.1443351"},
 {"id":"50","post_code":"02022","name":"Abou El Hassen","wilaya_id":"2", "ar_name":"أبو الحسن", "longitude":"36.407875", "latitude":"1.1184571"},
 {"id":"51","post_code":"02023","name":"El Marsa","wilaya_id":"2", "ar_name":"المرصى", "longitude":"36.2599947", "latitude":"0.722512"},
 {"id":"52","post_code":"02024","name":"Chettia","wilaya_id":"2", "ar_name":"الشطية", "longitude":"36.1782742", "latitude":"1.1791394"},
 {"id":"53","post_code":"02025","name":"Sidi Abderrahmane","wilaya_id":"2", "ar_name":"سيدي عبد الرحمان", "longitude":"36.4236714", "latitude":"1.0492304"},
 {"id":"54","post_code":"02026","name":"Moussadek","wilaya_id":"2", "ar_name":"مصدق", "longitude":"36.3521334", "latitude":"1.0004317"},
 {"id":"55","post_code":"02027","name":"El Hadjadj","wilaya_id":"2", "ar_name":"الحجاج", "longitude":"35.6908338", "latitude":"1.538967"},
 {"id":"56","post_code":"02028","name":"Labiod Medjadja","wilaya_id":"2", "ar_name":"الأبيض مجاجة", "longitude":"36.2682804", "latitude":"1.3325618"},
 {"id":"57","post_code":"02029","name":"Oued Fodda","wilaya_id":"2", "ar_name":"واد الفضة", "longitude":"36.1995109", "latitude":"1.4672731"},
 {"id":"58","post_code":"02030","name":"Ouled Ben Abdelkader","wilaya_id":"2", "ar_name":"أولاد بن عبد القادر", "longitude":"35.9670371", "latitude":"1.192049"},
 {"id":"59","post_code":"02031","name":"Bouzghaia","wilaya_id":"2", "ar_name":"بوزغاية", "longitude":"36.3604333", "latitude":"1.1871646"},
 {"id":"60","post_code":"02032","name":"Ain Merane","wilaya_id":"2", "ar_name":"عين مران", "longitude":"36.1625642", "latitude":"0.9651016"},
 {"id":"61","post_code":"02033","name":"Oum Drou","wilaya_id":"2", "ar_name":"أم الذروع", "longitude":"36.2034869", "latitude":"1.3460801"},
 {"id":"62","post_code":"02034","name":"Breira","wilaya_id":"2", "ar_name":"بريرة", "longitude":"36.4476233", "latitude":"1.5221188"},
 {"id":"63","post_code":"02035","name":"Beni Bouateb","wilaya_id":"2", "ar_name":"بني بوعتاب", "longitude":"35.9895844", "latitude":"1.5589402"},
 {"id":"64","post_code":"03001","name":"Laghouat","wilaya_id":"3", "ar_name":"الأغواط", "longitude":"33.7939523", "latitude":"2.8368501"},
 {"id":"65","post_code":"03002","name":"Ksar El Hirane","wilaya_id":"3", "ar_name":"قصر الحيران", "longitude":"33.7855481", "latitude":"3.119366"},
 {"id":"66","post_code":"03003","name":"Benacer Ben Chohra","wilaya_id":"3", "ar_name":"بن ناصر بن شهرة", "longitude":"33.7522913", "latitude":"2.9939138"},
 {"id":"67","post_code":"03004","name":"Sidi Makhlouf","wilaya_id":"3", "ar_name":"سيدي مخلوف", "longitude":"34.1276242", "latitude":"3.0060262"},
 {"id":"68","post_code":"03005","name":"Hassi Delaa","wilaya_id":"3", "ar_name":"حاسي دلاعة", "longitude":"33.4154299", "latitude":"3.5410309"},
 {"id":"69","post_code":"03006","name":"Hassi R'Mel","wilaya_id":"3", "ar_name":"حاسي الرمل", "longitude":"32.9412958", "latitude":"3.2443135"},
 {"id":"70","post_code":"03007","name":"Ain Mahdi","wilaya_id":"3", "ar_name":"عــيــن مـــاضــي", "longitude":"33.7955179", "latitude":"2.2924947"},
 {"id":"71","post_code":"03008","name":"Tadjmout","wilaya_id":"3", "ar_name":"تاجموت", "longitude":"33.8376241", "latitude":"2.5234705"},
 {"id":"72","post_code":"03009","name":"El Kheneg","wilaya_id":"3", "ar_name":"الخنق", "longitude":"33.7441108", "latitude":"2.7841758"},
 {"id":"73","post_code":"03010","name":"Gueltat Sidi Saad","wilaya_id":"3", "ar_name":"قلتة سيدي سعد", "longitude":"34.2983511", "latitude":"1.9323492"},
 {"id":"74","post_code":"03011","name":"Ain Sidi Ali","wilaya_id":"3", "ar_name":"عين سيدي علي", "longitude":"34.1666661", "latitude":"1.5412452"},
 {"id":"75","post_code":"03012","name":"Beidha","wilaya_id":"3", "ar_name":"بيضاء", "longitude":"33.7873735", "latitude":"2.8829115"},
 {"id":"76","post_code":"03013","name":"Brida","wilaya_id":"3", "ar_name":"بريدة", "longitude":"33.9495922", "latitude":"1.7465471"},
 {"id":"77","post_code":"03014","name":"El Ghicha","wilaya_id":"3", "ar_name":"الغيشة", "longitude":"33.9297719", "latitude":"2.1396303"},
 {"id":"78","post_code":"03015","name":"Hadj Mechri","wilaya_id":"3", "ar_name":"الحاج المشري", "longitude":"33.9572842", "latitude":"1.5908605"},
 {"id":"79","post_code":"03016","name":"Sebgag","wilaya_id":"3", "ar_name":"سبقاق", "longitude":"34.0285379", "latitude":"1.9293458"},
 {"id":"80","post_code":"03017","name":"Taouiala","wilaya_id":"3", "ar_name":"تاويالة", "longitude":"33.8715595", "latitude":"1.8530845"},
 {"id":"81","post_code":"03018","name":"Tadjrouna","wilaya_id":"3", "ar_name":"تاجرونة", "longitude":"33.5036312", "latitude":"2.0924622"},
 {"id":"82","post_code":"03019","name":"Aflou","wilaya_id":"3", "ar_name":"أفلو", "longitude":"34.1121156", "latitude":"2.0835167"},
 {"id":"83","post_code":"03020","name":"El Assafia","wilaya_id":"3", "ar_name":"العسافية", "longitude":"33.8269722", "latitude":"2.9816293"},
 {"id":"84","post_code":"03021","name":"Oued Morra","wilaya_id":"3", "ar_name":"وادي مرة", "longitude":"34.1666661", "latitude":"2.3079121"},
 {"id":"85","post_code":"03022","name":"Oued M'Zi","wilaya_id":"3", "ar_name":"وادي مزي", "longitude":"33.9410427", "latitude":"2.4231133"},
 {"id":"86","post_code":"03023","name":"El Haouaita","wilaya_id":"3", "ar_name":"الهوارية", "longitude":"37.0505755", "latitude":"10.9904863"},
 {"id":"87","post_code":"03024","name":"Sidi Bouzid","wilaya_id":"3", "ar_name":"سيدي بوزيد", "longitude":"35.0363883", "latitude":"9.4595281"},
 {"id":"88","post_code":"04001","name":"Oum El Bouaghi","wilaya_id":"4", "ar_name":"أم البواقي", "longitude":"35.8725963", "latitude":"7.0830052"},
 {"id":"89","post_code":"04002","name":"Ain Beida","wilaya_id":"4", "ar_name":"عين البيضاء", "longitude":"35.7948292", "latitude":"7.3338883"},
 {"id":"90","post_code":"04003","name":"Ain M'lila","wilaya_id":"4", "ar_name":"عين مليلة", "longitude":"36.0260869", "latitude":"6.4239017"},
 {"id":"91","post_code":"04004","name":"Behir Chergui","wilaya_id":"4", "ar_name":"بحير الشرڨي", "longitude":"35.7937891", "latitude":"7.7132713"},
 {"id":"92","post_code":"04005","name":"El Amiria","wilaya_id":"4", "ar_name":"العامرية", "longitude":"36.1101777", "latitude":"6.9026434"},
 {"id":"93","post_code":"04006","name":"Sigus","wilaya_id":"4", "ar_name":"سيقوس", "longitude":"36.1085199", "latitude":"6.603674"},
 {"id":"94","post_code":"04007","name":"El Belala","wilaya_id":"4", "ar_name":"البلالة", "longitude":"35.6660914", "latitude":"7.7837598"},
 {"id":"95","post_code":"04008","name":"Ain Babouche","wilaya_id":"4", "ar_name":"عين بابوش", "longitude":"35.9402286", "latitude":"7.1751022"},
 {"id":"96","post_code":"04009","name":"Berriche","wilaya_id":"4", "ar_name":"بريش", "longitude":"35.9155816", "latitude":"7.3676848"},
 {"id":"97","post_code":"04010","name":"Ouled Hamla","wilaya_id":"4", "ar_name":"أولاد حملة", "longitude":"36.0811426", "latitude":"6.3334038"},
 {"id":"98","post_code":"04011","name":"Dhala","wilaya_id":"4", "ar_name":"الضلعة", "longitude":"35.4610885", "latitude":"7.5379943"},
 {"id":"99","post_code":"04012","name":"Ain Kercha","wilaya_id":"4", "ar_name":"عين كرشة", "longitude":"35.9275632", "latitude":"6.6811426"},
 {"id":"100","post_code":"04013","name":"Hanchir Toumghani","wilaya_id":"4", "ar_name":"هنشير تومغني", "longitude":"35.9371712", "latitude":"6.7319584"},
 {"id":"101","post_code":"04014","name":"El Djazia","wilaya_id":"4", "ar_name":"الجازيـــــــة", "longitude":"35.663473", "latitude":"7.5030506"},
 {"id":"102","post_code":"04015","name":"Ain Diss","wilaya_id":"4", "ar_name":"عين الديس", "longitude":"35.8101391", "latitude":"7.2888545"},
 {"id":"103","post_code":"04016","name":"Fkirina","wilaya_id":"4", "ar_name":"فكرينة", "longitude":"35.6638941", "latitude":"7.2909736"},
 {"id":"104","post_code":"04017","name":"Souk Naamane","wilaya_id":"4", "ar_name":"سوق نعمان", "longitude":"35.93924", "latitude":"6.2583772"},
 {"id":"105","post_code":"04018","name":"Zorg","wilaya_id":"4", "ar_name":"الزرڨ", "longitude":"35.8726014", "latitude":"7.1180248"},
 {"id":"106","post_code":"04019","name":"El Fedjoudj Boughrara Saoudi","wilaya_id":"4", "ar_name":"الفجوج بوغرارة سعودى", "longitude":"35.709409", "latitude":"6.8162978"},
 {"id":"107","post_code":"04020","name":"Ouled Zouai","wilaya_id":"4", "ar_name":"أولاد زواي", "longitude":"35.8556626", "latitude":"6.3821021"},
 {"id":"108","post_code":"04021","name":"Bir Chouhada","wilaya_id":"4", "ar_name":"بئر الشهداء", "longitude":"35.9007146", "latitude":"6.1753867"},
 {"id":"109","post_code":"04022","name":"Ksar Sbahi","wilaya_id":"4", "ar_name":"قصر صباحي", "longitude":"36.0820976", "latitude":"7.250204"},
 {"id":"110","post_code":"04023","name":"Oued Nini","wilaya_id":"4", "ar_name":"وادي نيني", "longitude":"35.5716976", "latitude":"7.3377513"},
 {"id":"111","post_code":"04024","name":"Meskiana","wilaya_id":"4", "ar_name":"مسكيانة", "longitude":"35.6297416", "latitude":"7.6523636"},
 {"id":"112","post_code":"04025","name":"Ain Fekroune","wilaya_id":"4", "ar_name":"عين فكرون", "longitude":"35.9745986", "latitude":"6.851982"},
 {"id":"113","post_code":"04026","name":"Rahia","wilaya_id":"4", "ar_name":"الراحية", "longitude":"35.7166662", "latitude":"7.6579122"},
 {"id":"114","post_code":"04027","name":"Ain Zitoun","wilaya_id":"4", "ar_name":"عين الزيتون", "longitude":"35.6841587", "latitude":"6.9309782"},
 {"id":"115","post_code":"04028","name":"Ouled Gacem","wilaya_id":"4", "ar_name":"أولاد ڨاسم", "longitude":"36.0328844", "latitude":"6.6594743"},
 {"id":"116","post_code":"04029","name":"El Harmilia","wilaya_id":"4", "ar_name":"الحرملية", "longitude":"35.9257478", "latitude":"6.6176749"},
 {"id":"117","post_code":"05001","name":"Batna","wilaya_id":"5", "ar_name":"باتنة", "longitude":"35.5784266", "latitude":"6.1083422"},
 {"id":"118","post_code":"05002","name":"Ghassira","wilaya_id":"5", "ar_name":"غسيرة", "longitude":"35.0629605", "latitude":"6.1563323"},
 {"id":"119","post_code":"05003","name":"Maafa","wilaya_id":"5", "ar_name":"معافة", "longitude":"35.2770359", "latitude":"5.8156273"},
 {"id":"120","post_code":"05004","name":"Merouana","wilaya_id":"5", "ar_name":"مروانة", "longitude":"35.6417881", "latitude":"5.8172903"},
 {"id":"121","post_code":"05005","name":"Seriana","wilaya_id":"5", "ar_name":"سريانة", "longitude":"35.7161562", "latitude":"6.127064"},
 {"id":"122","post_code":"05006","name":"Menaa","wilaya_id":"5", "ar_name":"منعة", "longitude":"35.1373236", "latitude":"5.9981034"},
 {"id":"123","post_code":"05007","name":"El Madher","wilaya_id":"5", "ar_name":"المعذر", "longitude":"35.6392974", "latitude":"6.3042185"},
 {"id":"124","post_code":"05008","name":"Tazoult","wilaya_id":"5", "ar_name":"تازولت", "longitude":"35.470362", "latitude":"6.1694644"},
 {"id":"125","post_code":"05009","name":"Ngaous","wilaya_id":"5", "ar_name":"نڨاوس", "longitude":"35.5525842", "latitude":"5.5189965"},
 {"id":"126","post_code":"05010","name":"Guigba","wilaya_id":"5", "ar_name":"قيقبة", "longitude":"35.7407753", "latitude":"5.5352956"},
 {"id":"127","post_code":"05011","name":"Inoughissen","wilaya_id":"5", "ar_name":"إينوغيسن", "longitude":"35.2771231", "latitude":"6.4628765"},
 {"id":"128","post_code":"05012","name":"Ouyoun El Assafir","wilaya_id":"5", "ar_name":"عيون العصافير", "longitude":"35.5468473", "latitude":"6.2710449"},
 {"id":"129","post_code":"05013","name":"Djerma","wilaya_id":"5", "ar_name":"جرمة", "longitude":"35.6853933", "latitude":"6.2267778"},
 {"id":"130","post_code":"05014","name":"Bitam","wilaya_id":"5", "ar_name":"بيطام", "longitude":"35.1772246", "latitude":"4.9980505"},
 {"id":"131","post_code":"05015","name":"Metkaouak","wilaya_id":"5", "ar_name":"عزيل عبد القادر", "longitude":"35.323352", "latitude":"4.6952399"},
 {"id":"132","post_code":"05016","name":"Arris","wilaya_id":"5", "ar_name":"اريس", "longitude":"35.3105194", "latitude":"6.2007524"},
 {"id":"133","post_code":"05017","name":"Kimmel","wilaya_id":"5", "ar_name":"كيمل", "longitude":"34.9992137", "latitude":"6.2208802"},
 {"id":"134","post_code":"05018","name":"Tilatou","wilaya_id":"5", "ar_name":"تيلاطو", "longitude":"35.3131323", "latitude":"5.4911366"},
 {"id":"135","post_code":"05019","name":"Ain Djasser","wilaya_id":"5", "ar_name":"عين جاسر", "longitude":"35.8311206", "latitude":"5.9331296"},
 {"id":"136","post_code":"05020","name":"Ouled Selam","wilaya_id":"5", "ar_name":"أولاد سلام", "longitude":"35.8457485", "latitude":"5.7276937"},
 {"id":"137","post_code":"05021","name":"Tigherghar","wilaya_id":"5", "ar_name":"تيغرغار", "longitude":"35.0765612", "latitude":"5.8212842"},
 {"id":"138","post_code":"05022","name":"Ain Yagout","wilaya_id":"5", "ar_name":"عين ياقوت", "longitude":"35.7864482", "latitude":"6.2679257"},
 {"id":"139","post_code":"05023","name":"Fesdis","wilaya_id":"5", "ar_name":"فسديس", "longitude":"35.6179227", "latitude":"6.1696788"},
 {"id":"140","post_code":"05024","name":"Sefiane","wilaya_id":"5", "ar_name":"سفيان", "longitude":"35.4280853", "latitude":"5.5186532"},
 {"id":"141","post_code":"05025","name":"Rahbat","wilaya_id":"5", "ar_name":"الرحبات", "longitude":"35.7257797", "latitude":"5.5571911"},
 {"id":"142","post_code":"05026","name":"Tighanimine","wilaya_id":"5", "ar_name":"تيغانمين", "longitude":"35.185829", "latitude":"6.2290737"},
 {"id":"143","post_code":"05027","name":"Lemsane","wilaya_id":"5", "ar_name":"لمسان", "longitude":"35.6384911", "latitude":"5.7282516"},
 {"id":"144","post_code":"05028","name":"Ksar Belezma","wilaya_id":"5", "ar_name":"قصر بلازمة", "longitude":"35.728729", "latitude":"5.8247576"},
 {"id":"145","post_code":"05029","name":"Seggana","wilaya_id":"5", "ar_name":"سقانة", "longitude":"35.3380358", "latitude":"5.4071512"},
 {"id":"146","post_code":"05030","name":"Ichmoul","wilaya_id":"5", "ar_name":"ايشمول", "longitude":"35.3059756", "latitude":"6.4186737"},
 {"id":"147","post_code":"05031","name":"Foum Toub","wilaya_id":"5", "ar_name":"فم الطوب", "longitude":"35.3867728", "latitude":"6.4478348"},
 {"id":"148","post_code":"05032","name":"Beni Foudhala El Hakania","wilaya_id":"5", "ar_name":"بنى فضالة الحقانية", "longitude":"35.3790646", "latitude":"5.9300746"},
 {"id":"149","post_code":"05033","name":"Oued El Ma","wilaya_id":"5", "ar_name":"واد الماء", "longitude":"35.6696259", "latitude":"5.952935"},
 {"id":"150","post_code":"05034","name":"Talkhamt","wilaya_id":"5", "ar_name":"تالخمت", "longitude":"35.722912", "latitude":"5.7070515"},
 {"id":"151","post_code":"05035","name":"Bouzina","wilaya_id":"5", "ar_name":"بوزينة", "longitude":"35.2757765", "latitude":"5.9780111"},
 {"id":"152","post_code":"05036","name":"Chemora","wilaya_id":"5", "ar_name":"الشمرة", "longitude":"35.6301185", "latitude":"6.4747992"},
 {"id":"153","post_code":"05037","name":"Oued Chaaba","wilaya_id":"5", "ar_name":"واد الشعبة", "longitude":"35.5243377", "latitude":"6.011965"},
 {"id":"154","post_code":"05038","name":"Taxlent","wilaya_id":"5", "ar_name":"تاكسلانت", "longitude":"35.5635407", "latitude":"5.7388089"},
 {"id":"155","post_code":"05039","name":"Gosbat","wilaya_id":"5", "ar_name":"القصبات", "longitude":"35.6198308", "latitude":"5.3394309"},
 {"id":"156","post_code":"05040","name":"Ouled Aouf","wilaya_id":"5", "ar_name":"أولاد عوف", "longitude":"35.4740373", "latitude":"5.7172224"},
 {"id":"157","post_code":"05041","name":"Boumagueur","wilaya_id":"5", "ar_name":"بــومقر", "longitude":"35.4973671", "latitude":"5.5073234"},
 {"id":"158","post_code":"05042","name":"Barika","wilaya_id":"5", "ar_name":"بريكة", "longitude":"35.3698534", "latitude":"5.1424493"},
 {"id":"159","post_code":"05043","name":"Djezzar","wilaya_id":"5", "ar_name":"الجزار", "longitude":"35.5180608", "latitude":"5.1947203"},
 {"id":"160","post_code":"05044","name":"Tkout","wilaya_id":"5", "ar_name":"تكوت", "longitude":"35.1533059", "latitude":"6.2237014"},
 {"id":"161","post_code":"05045","name":"Ain Touta","wilaya_id":"5", "ar_name":"عين التوتة", "longitude":"35.3640241", "latitude":"5.7540788"},
 {"id":"162","post_code":"05046","name":"Hidoussa","wilaya_id":"5", "ar_name":"حيدوسة", "longitude":"35.528608", "latitude":"5.7812335"},
 {"id":"163","post_code":"05047","name":"Teniet El Abed","wilaya_id":"5", "ar_name":"نية العابد", "longitude":"35.2869315", "latitude":"6.1926387"},
 {"id":"164","post_code":"05048","name":"Oued Taga","wilaya_id":"5", "ar_name":"وادي الطاقة", "longitude":"35.4185955", "latitude":"6.2379494"},
 {"id":"165","post_code":"05049","name":"Ouled Fadel","wilaya_id":"5", "ar_name":"أولاد فاضل", "longitude":"35.5552777", "latitude":"6.540245"},
 {"id":"166","post_code":"05050","name":"Timgad","wilaya_id":"5", "ar_name":"تيمقاد", "longitude":"35.5269245", "latitude":"6.3713303"},
 {"id":"167","post_code":"05051","name":"Ras El Aioun","wilaya_id":"5", "ar_name":"رأس العيون", "longitude":"35.6547596", "latitude":"5.5340598"},
 {"id":"168","post_code":"05052","name":"Chir","wilaya_id":"5", "ar_name":"شير", "longitude":"35.218839", "latitude":"6.061661"},
 {"id":"169","post_code":"05053","name":"Ouled Si Slimane","wilaya_id":"5", "ar_name":"أولاد سي سليمان", "longitude":"35.5671114", "latitude":"5.5504885"},
 {"id":"170","post_code":"05054","name":"Zanat El Beida","wilaya_id":"5", "ar_name":"زانة البيضاء", "longitude":"35.7947074", "latitude":"5.9551803"},
 {"id":"171","post_code":"05055","name":"M'doukel","wilaya_id":"5", "ar_name":"أمدوكال", "longitude":"35.1132204", "latitude":"5.0064721"},
 {"id":"172","post_code":"05056","name":"Ouled Ammar","wilaya_id":"5", "ar_name":"أولاد عمار", "longitude":"35.4637775", "latitude":"5.1226733"},
 {"id":"173","post_code":"05057","name":"El Hassi","wilaya_id":"5", "ar_name":"الحاسي", "longitude":"35.7805122", "latitude":"5.8788416"},
 {"id":"174","post_code":"05058","name":"Lazrou","wilaya_id":"5", "ar_name":"لازرو", "longitude":"35.8042574", "latitude":"6.2001918"},
 {"id":"175","post_code":"05059","name":"Boumia","wilaya_id":"5", "ar_name":"بومية", "longitude":"35.7041224", "latitude":"6.3963578"},
 {"id":"176","post_code":"05060","name":"Boulhilat","wilaya_id":"5", "ar_name":"بولهيلات", "longitude":"35.7374798", "latitude":"6.5889619"},
 {"id":"177","post_code":"05061","name":"Larbaa","wilaya_id":"5", "ar_name":"الاربعاء", "longitude":"36.5787079", "latitude":"3.103324"},
 {"id":"178","post_code":"06001","name":"Bejaia","wilaya_id":"6", "ar_name":"بجاية", "longitude":"36.7695763", "latitude":"4.938545"},
 {"id":"179","post_code":"06002","name":"Amizour","wilaya_id":"6", "ar_name":"اميزور", "longitude":"36.6429158", "latitude":"4.8679708"},
 {"id":"180","post_code":"06003","name":"Ferraoun","wilaya_id":"6", "ar_name":"فرعون", "longitude":"36.5654312", "latitude":"4.8417715"},
 {"id":"181","post_code":"06004","name":"Taourirt Ighil","wilaya_id":"6", "ar_name":"تاوريرت اغيل", "longitude":"36.7329317", "latitude":"4.6709356"},
 {"id":"182","post_code":"06005","name":"Chelata","wilaya_id":"6", "ar_name":"شلاطة", "longitude":"36.5079843", "latitude":"4.4892072"},
 {"id":"183","post_code":"06006","name":"Tamokra","wilaya_id":"6", "ar_name":"تامقرة", "longitude":"36.3916342", "latitude":"4.5814411"},
 {"id":"184","post_code":"06007","name":"Timzrit","wilaya_id":"6", "ar_name":"تيمزريت", "longitude":"36.6161452", "latitude":"4.7342109"},
 {"id":"185","post_code":"06008","name":"Souk El Thenine","wilaya_id":"6", "ar_name":"ﺳﻮق اﻻﺛﻨﻴﻦ", "longitude":"36.6150269", "latitude":"5.2777913"},
 {"id":"186","post_code":"06009","name":"M'cisna","wilaya_id":"6", "ar_name":"مسيسنة", "longitude":"36.5646521", "latitude":"4.6922142"},
 {"id":"187","post_code":"06010","name":"Thinabdher","wilaya_id":"6", "ar_name":"تينبذار", "longitude":"36.6333952", "latitude":"4.6645332"},
 {"id":"188","post_code":"06011","name":"Tichi","wilaya_id":"6", "ar_name":"تيشي", "longitude":"36.620329", "latitude":"5.0944646"},
 {"id":"189","post_code":"06012","name":"Semaoun","wilaya_id":"6", "ar_name":"سمعون", "longitude":"36.6163121", "latitude":"4.8029022"},
 {"id":"190","post_code":"06013","name":"Kendira","wilaya_id":"6", "ar_name":"كنديرة", "longitude":"36.5568449", "latitude":"4.948437"},
 {"id":"191","post_code":"06014","name":"Tifra","wilaya_id":"6", "ar_name":"تيفرة", "longitude":"36.6626768", "latitude":"4.6505501"},
 {"id":"192","post_code":"06015","name":"Ighram","wilaya_id":"6", "ar_name":"إغرم", "longitude":"36.4765457", "latitude":"4.3924687"},
 {"id":"193","post_code":"06016","name":"Amalou","wilaya_id":"6", "ar_name":"امالو", "longitude":"36.4780606", "latitude":"4.5674507"},
 {"id":"194","post_code":"06017","name":"Ighil Ali","wilaya_id":"6", "ar_name":"إغيل على", "longitude":"36.2905404", "latitude":"4.4345472"},
 {"id":"195","post_code":"06018","name":"Ifelain Ilmathen","wilaya_id":"6", "ar_name":"افناين الماثن", "longitude":"36.6673126", "latitude":"4.7479832"},
 {"id":"196","post_code":"06019","name":"Toudja","wilaya_id":"6", "ar_name":"توجة", "longitude":"36.7862498", "latitude":"4.7209914"},
 {"id":"197","post_code":"06020","name":"Darguina","wilaya_id":"6", "ar_name":"درقينة", "longitude":"36.5537403", "latitude":"5.3057073"},
 {"id":"198","post_code":"06021","name":"Sidi Ayad","wilaya_id":"6", "ar_name":"سيدي عياد", "longitude":"36.6095992", "latitude":"4.6956681"},
 {"id":"199","post_code":"06022","name":"Aokas","wilaya_id":"6", "ar_name":"أوقاس", "longitude":"36.6195851", "latitude":"5.2038174"},
 {"id":"200","post_code":"06023","name":"Ait Djellil","wilaya_id":"6", "ar_name":"آيث جليل", "longitude":"36.5626795", "latitude":"4.7643966"},
 {"id":"201","post_code":"06024","name":"Adekar","wilaya_id":"6", "ar_name":"آدكار", "longitude":"36.7343709", "latitude":"4.5420287"},
 {"id":"202","post_code":"06025","name":"Akbou","wilaya_id":"6", "ar_name":"أقبو", "longitude":"36.4583204", "latitude":"4.4639658"},
 {"id":"203","post_code":"06026","name":"Seddouk","wilaya_id":"6", "ar_name":"صدوق", "longitude":"36.5367869", "latitude":"4.6409049"},
 {"id":"204","post_code":"06027","name":"Tazmalt","wilaya_id":"6", "ar_name":"تازمالت", "longitude":"36.3980947", "latitude":"4.3892305"},
 {"id":"205","post_code":"06028","name":"Ait R'zine","wilaya_id":"6", "ar_name":"آيت أرزين", "longitude":"36.3866561", "latitude":"4.4646094"},
 {"id":"206","post_code":"06029","name":"Chemini","wilaya_id":"6", "ar_name":"شميني", "longitude":"36.5928345", "latitude":"4.5601731"},
 {"id":"207","post_code":"06030","name":"Souk Oufella","wilaya_id":"6", "ar_name":"سوق أوفلة", "longitude":"36.5880436", "latitude":"4.5992053"},
 {"id":"208","post_code":"06031","name":"Taskriout","wilaya_id":"6", "ar_name":"تاسقريوت", "longitude":"36.5565707", "latitude":"5.2237624"},
 {"id":"209","post_code":"06032","name":"Tibane","wilaya_id":"6", "ar_name":"طيبان", "longitude":"36.6131706", "latitude":"4.6360841"},
 {"id":"210","post_code":"06033","name":"Tala Hamza","wilaya_id":"6", "ar_name":"ثالة حمزة", "longitude":"36.6904609", "latitude":"4.9432228"},
 {"id":"211","post_code":"06034","name":"Barbacha","wilaya_id":"6", "ar_name":"برباشة", "longitude":"36.5628189", "latitude":"4.8862205"},
 {"id":"212","post_code":"06035","name":"Beni Ksila","wilaya_id":"6", "ar_name":"بنى كسيلة", "longitude":"36.8280602", "latitude":"4.6309708"},
 {"id":"213","post_code":"06036","name":"Ouzallaguen","wilaya_id":"6", "ar_name":"أوزلاقن", "longitude":"36.5473904", "latitude":"4.5075207"},
 {"id":"214","post_code":"06037","name":"Bouhamza","wilaya_id":"6", "ar_name":"بوحمزة", "longitude":"36.4393229", "latitude":"4.5700544"},
 {"id":"215","post_code":"06038","name":"Beni Melikeche","wilaya_id":"6", "ar_name":"بنى مليكش", "longitude":"36.4475154", "latitude":"4.3846601"},
 {"id":"216","post_code":"06039","name":"Sidi Aich","wilaya_id":"6", "ar_name":"سيدي عيش", "longitude":"36.6223093", "latitude":"4.6792592"},
 {"id":"217","post_code":"06040","name":"El Kseur","wilaya_id":"6", "ar_name":"القصر", "longitude":"36.7187382", "latitude":"4.7678254"},
 {"id":"218","post_code":"06041","name":"Melbou","wilaya_id":"6", "ar_name":"ملبو", "longitude":"36.6217049", "latitude":"5.351135"},
 {"id":"219","post_code":"06042","name":"Akfadou","wilaya_id":"6", "ar_name":"اكفادو", "longitude":"36.6580416", "latitude":"4.5747965"},
 {"id":"220","post_code":"06043","name":"Leflaye","wilaya_id":"6", "ar_name":"لفلاى", "longitude":"36.597995", "latitude":"4.6441959"},
 {"id":"221","post_code":"06044","name":"Kherrata","wilaya_id":"6", "ar_name":"خراطة", "longitude":"36.4719307", "latitude":"5.2047107"},
 {"id":"222","post_code":"06045","name":"Draa Kaid","wilaya_id":"6", "ar_name":"ذراع القايد", "longitude":"36.4405974", "latitude":"5.168301"},
 {"id":"223","post_code":"06046","name":"Tamridjet","wilaya_id":"6", "ar_name":"تامريجت", "longitude":"36.5729424", "latitude":"5.3775099"},
 {"id":"224","post_code":"06047","name":"Ait Smail","wilaya_id":"6", "ar_name":"آيت سماعيل", "longitude":"36.554314", "latitude":"5.1892262"},
 {"id":"225","post_code":"06048","name":"Boukhelifa","wilaya_id":"6", "ar_name":"بوخليفة", "longitude":"36.6367939", "latitude":"5.0058926"},
 {"id":"226","post_code":"06049","name":"Tizi N'berber","wilaya_id":"6", "ar_name":"تيزى نبربر", "longitude":"36.5899196", "latitude":"5.1307333"},
 {"id":"227","post_code":"06050","name":"Beni Maouch","wilaya_id":"6", "ar_name":"بني معوش", "longitude":"36.4881459", "latitude":"4.72105"},
 {"id":"228","post_code":"06051","name":"Oued Ghir","wilaya_id":"6", "ar_name":"وادي غير", "longitude":"36.7149207", "latitude":"4.9085928"},
 {"id":"229","post_code":"06052","name":"Boudjellil","wilaya_id":"6", "ar_name":"بوجليل", "longitude":"36.3223972", "latitude":"4.3477724"},
 {"id":"230","post_code":"07001","name":"Biskra","wilaya_id":"7", "ar_name":"بسكرة", "longitude":"34.851484", "latitude":"5.6546304"},
 {"id":"231","post_code":"07002","name":"Oumache","wilaya_id":"7", "ar_name":"أوماش", "longitude":"34.586303", "latitude":"5.5181413"},
 {"id":"232","post_code":"07003","name":"Branis","wilaya_id":"7", "ar_name":"البرانس", "longitude":"34.9709574", "latitude":"5.6412543"},
 {"id":"233","post_code":"07004","name":"Chetma","wilaya_id":"7", "ar_name":"شتمة", "longitude":"34.8655388", "latitude":"5.7729266"},
 {"id":"234","post_code":"07005","name":"Ouled Djellal","wilaya_id":"7", "ar_name":"أولاد جلال", "longitude":"34.4174639", "latitude":"4.9713028"},
 {"id":"235","post_code":"07006","name":"Ras El Miaad","wilaya_id":"7", "ar_name":"راس الميعاد", "longitude":"34.0268001", "latitude":"4.1596986"},
 {"id":"236","post_code":"07007","name":"Besbes","wilaya_id":"7", "ar_name":"البسباس", "longitude":"36.7204026", "latitude":"7.7544139"},
 {"id":"237","post_code":"07008","name":"Sidi Khaled","wilaya_id":"7", "ar_name":"سيدي خالد", "longitude":"34.3845588", "latitude":"4.8400248"},
 {"id":"238","post_code":"07009","name":"Doucen","wilaya_id":"7", "ar_name":"الدوسن", "longitude":"34.6197821", "latitude":"4.9863232"},
 {"id":"239","post_code":"07010","name":"Ech Chaiba","wilaya_id":"7", "ar_name":"أولاد رحمة", "longitude":"34.6257746", "latitude":"4.5572238"},
 {"id":"240","post_code":"07011","name":"Sidi Okba","wilaya_id":"7", "ar_name":"سيدي عقبة", "longitude":"34.776526", "latitude":"5.8344242"},
 {"id":"241","post_code":"07012","name":"Mchouneche","wilaya_id":"7", "ar_name":"مشونش", "longitude":"34.9063847", "latitude":"5.8993044"},
 {"id":"242","post_code":"07013","name":"El Haouch","wilaya_id":"7", "ar_name":"الحوش", "longitude":"34.5603287", "latitude":"5.8852281"},
 {"id":"243","post_code":"07014","name":"Ain Naga","wilaya_id":"7", "ar_name":"عين الناقة", "longitude":"34.6508231", "latitude":"6.0189093"},
 {"id":"244","post_code":"07015","name":"Zeribet El Oued","wilaya_id":"7", "ar_name":"زريبة الوادي", "longitude":"34.683456", "latitude":"6.3748921"},
 {"id":"245","post_code":"07016","name":"El Feidh","wilaya_id":"7", "ar_name":"الفيض", "longitude":"34.4990192", "latitude":"6.1924699"},
 {"id":"246","post_code":"07017","name":"El Kantara","wilaya_id":"7", "ar_name":"القنطرة", "longitude":"35.2052532", "latitude":"5.5062642"},
 {"id":"247","post_code":"07018","name":"Ain Zaatout","wilaya_id":"7", "ar_name":"عين زعطوط", "longitude":"35.1705188", "latitude":"5.7860157"},
 {"id":"248","post_code":"07019","name":"El Outaya","wilaya_id":"7", "ar_name":"لوطاية", "longitude":"34.9772883", "latitude":"5.4401959"},
 {"id":"249","post_code":"07020","name":"Djemorah","wilaya_id":"7", "ar_name":"جمورة", "longitude":"35.0989288", "latitude":"5.6954643"},
 {"id":"250","post_code":"07021","name":"Tolga","wilaya_id":"7", "ar_name":"طولقة", "longitude":"34.894129", "latitude":"4.9483543"},
 {"id":"251","post_code":"07022","name":"Lioua","wilaya_id":"7", "ar_name":"لواء", "longitude":"34.5726359", "latitude":"5.224675"},
 {"id":"252","post_code":"07023","name":"Lichana","wilaya_id":"7", "ar_name":"لشانة", "longitude":"34.7379403", "latitude":"5.3672479"},
 {"id":"253","post_code":"07024","name":"Ourlal","wilaya_id":"7", "ar_name":"أورلال", "longitude":"34.563429", "latitude":"5.3748787"},
 {"id":"254","post_code":"07025","name":"M'lili","wilaya_id":"7", "ar_name":"مليلي", "longitude":"34.5781616", "latitude":"5.4617608"},
 {"id":"255","post_code":"07026","name":"Foughala","wilaya_id":"7", "ar_name":"فوغالة", "longitude":"34.7598362", "latitude":"5.2212069"},
 {"id":"256","post_code":"07027","name":"Bordj Ben Azzouz","wilaya_id":"7", "ar_name":"برج بن عزوز", "longitude":"34.7281944", "latitude":"5.281975"},
 {"id":"257","post_code":"07028","name":"M'ziraa","wilaya_id":"7", "ar_name":"مزيرعة", "longitude":"34.8853471", "latitude":"6.0060458"},
 {"id":"258","post_code":"07029","name":"Bouchagroun","wilaya_id":"7", "ar_name":"بوشقرون", "longitude":"34.7378859", "latitude":"5.4169652"},
 {"id":"259","post_code":"07030","name":"Mekhadma","wilaya_id":"7", "ar_name":"مخادمة", "longitude":"34.5636943", "latitude":"5.3092183"},
 {"id":"260","post_code":"07031","name":"El Ghrous","wilaya_id":"7", "ar_name":"الغروس", "longitude":"34.7175474", "latitude":"5.0903931"},
 {"id":"261","post_code":"07032","name":"El Hadjab","wilaya_id":"7", "ar_name":"الحاجب", "longitude":"34.7967888", "latitude":"5.4551949"},
 {"id":"262","post_code":"07033","name":"Khanguet Sidinadji","wilaya_id":"7", "ar_name":"خنڨة سيدي ناجي", "longitude":"34.784537", "latitude":"6.6327354"},
 {"id":"263","post_code":"08001","name":"Bechar","wilaya_id":"8", "ar_name":"بشار", "longitude":"31.5965368", "latitude":"-2.4145248"},
 {"id":"264","post_code":"08002","name":"Erg Ferradj","wilaya_id":"8", "ar_name":"عرق فراج", "longitude":"31.0835905", "latitude":"-2.8630916"},
 {"id":"265","post_code":"08003","name":"Ouled Khoudir","wilaya_id":"8", "ar_name":"أولاد خدير", "longitude":"29.2558699", "latitude":"-1.0641503"},
 {"id":"266","post_code":"08004","name":"Meridja","wilaya_id":"8", "ar_name":"مريجة", "longitude":"31.5494045", "latitude":"-2.95583"},
 {"id":"267","post_code":"08005","name":"Timoudi","wilaya_id":"8", "ar_name":"تيمودى", "longitude":"29.3195526", "latitude":"-1.135803"},
 {"id":"268","post_code":"08006","name":"Lahmar","wilaya_id":"8", "ar_name":"لحمر", "longitude":"31.9312184", "latitude":"-2.2681563"},
 {"id":"269","post_code":"08007","name":"Beni Abbes","wilaya_id":"8", "ar_name":"بني عباس", "longitude":"30.1302299", "latitude":"-2.1782542"},
 {"id":"270","post_code":"08008","name":"Beni Ikhlef","wilaya_id":"8", "ar_name":"بني يخلف", "longitude":"29.5802183", "latitude":"-1.6128088"},
 {"id":"271","post_code":"08009","name":"Mechraa Houari Boumedienne","wilaya_id":"8", "ar_name":"مشرع ھوارى بومدين", "longitude":"30.9318258", "latitude":"-2.741164"},
 {"id":"272","post_code":"08010","name":"Kenedsa","wilaya_id":"8", "ar_name":"القنادسة", "longitude":"31.5570599", "latitude":"-2.4381801"},
 {"id":"273","post_code":"08011","name":"Igli","wilaya_id":"8", "ar_name":"إقلي", "longitude":"30.452849", "latitude":"-2.3000801"},
 {"id":"274","post_code":"08012","name":"Tabalbala","wilaya_id":"8", "ar_name":"تبلبالة", "longitude":"28.9735664", "latitude":"-5.9957642"},
 {"id":"275","post_code":"08013","name":"Taghit","wilaya_id":"8", "ar_name":"تــــاغـيــث", "longitude":"30.9150725", "latitude":"-2.0472123"},
 {"id":"276","post_code":"08014","name":"El Ouata","wilaya_id":"8", "ar_name":"الوطى", "longitude":"29.854111", "latitude":"-1.8650158"},
 {"id":"277","post_code":"08015","name":"Boukais","wilaya_id":"8", "ar_name":"بوكايس", "longitude":"31.9230182", "latitude":"-2.4714058"},
 {"id":"278","post_code":"08016","name":"Mogheul","wilaya_id":"8", "ar_name":"موغل", "longitude":"32.0219943", "latitude":"-2.2227252"},
 {"id":"279","post_code":"08017","name":"Abadla","wilaya_id":"8", "ar_name":"العبادلة", "longitude":"31.0174866", "latitude":"-2.7615494"},
 {"id":"280","post_code":"08018","name":"Kerzaz","wilaya_id":"8", "ar_name":"كرزاز", "longitude":"29.4602231", "latitude":"-1.4553024"},
 {"id":"281","post_code":"08019","name":"Ksabi","wilaya_id":"8", "ar_name":"قصابى", "longitude":"29.0984238", "latitude":"-1.0022456"},
 {"id":"282","post_code":"08020","name":"Tamtert","wilaya_id":"8", "ar_name":"تامترت", "longitude":"29.9166662", "latitude":"-1.9087548"},
 {"id":"283","post_code":"08021","name":"Beni Ounif","wilaya_id":"8", "ar_name":"بني ونيف", "longitude":"32.0512638", "latitude":"-1.2519046"},
 {"id":"284","post_code":"09001","name":"Blida","wilaya_id":"9", "ar_name":"البليدة‎", "longitude":"36.4802972", "latitude":"2.7659184"},
 {"id":"285","post_code":"09002","name":"Chebli","wilaya_id":"9", "ar_name":"الشبلي", "longitude":"36.5685763", "latitude":"2.9433463"},
 {"id":"286","post_code":"09003","name":"Bouinan","wilaya_id":"9", "ar_name":"بوعينان", "longitude":"36.5154839", "latitude":"2.9218243"},
 {"id":"287","post_code":"09004","name":"Oued El Alleug","wilaya_id":"9", "ar_name":"واد العلايڨ", "longitude":"36.5502875", "latitude":"2.7026126"},
 {"id":"288","post_code":"09007","name":"Ouled Yaich","wilaya_id":"9", "ar_name":"اولاد يعيش", "longitude":"36.4852123", "latitude":"2.8325741"},
 {"id":"289","post_code":"09008","name":"Chrea","wilaya_id":"9", "ar_name":"الشريعة", "longitude":"36.4254896", "latitude":"2.8286336"},
 {"id":"290","post_code":"09010","name":"El Affroun","wilaya_id":"9", "ar_name":"العفرون", "longitude":"36.4460675", "latitude":"2.5382873"},
 {"id":"291","post_code":"09011","name":"Chiffa","wilaya_id":"9", "ar_name":"الشفة", "longitude":"36.444398", "latitude":"2.6691173"},
 {"id":"292","post_code":"09012","name":"Hammam Melouane","wilaya_id":"9", "ar_name":"حمام ملوان", "longitude":"36.436102", "latitude":"2.8604689"},
 {"id":"293","post_code":"09013","name":"Ben Khlil","wilaya_id":"9", "ar_name":"بني خليل", "longitude":"36.5959588", "latitude":"2.7838729"},
 {"id":"294","post_code":"09014","name":"Soumaa","wilaya_id":"9", "ar_name":"صومعة", "longitude":"36.507015", "latitude":"2.8509281"},
 {"id":"295","post_code":"09016","name":"Mouzaia","wilaya_id":"9", "ar_name":"موزاية", "longitude":"36.50497", "latitude":"2.6139932"},
 {"id":"296","post_code":"09017","name":"Souhane","wilaya_id":"9", "ar_name":"صوحان", "longitude":"36.5263305", "latitude":"3.1705831"},
 {"id":"297","post_code":"09018","name":"Meftah","wilaya_id":"9", "ar_name":"مفتاح", "longitude":"36.6238272", "latitude":"3.1711838"},
 {"id":"298","post_code":"09019","name":"Ouled Selama","wilaya_id":"9", "ar_name":"أولاد سلامة", "longitude":"36.514057", "latitude":"3.0705904"},
 {"id":"299","post_code":"09020","name":"Boufarik","wilaya_id":"9", "ar_name":"بوفاريك", "longitude":"36.5739581", "latitude":"2.8478167"},
 {"id":"300","post_code":"09021","name":"Larbaa","wilaya_id":"9", "ar_name":"الاربعاء", "longitude":"36.5787079", "latitude":"3.103324"},
 {"id":"301","post_code":"09022","name":"Oued Djer","wilaya_id":"9", "ar_name":"واد جر", "longitude":"36.4223526", "latitude":"2.4657911"},
 {"id":"302","post_code":"09023","name":"Beni Tamou","wilaya_id":"9", "ar_name":"بني تامو", "longitude":"36.5401306", "latitude":"2.7729529"},
 {"id":"303","post_code":"09024","name":"Bouarfa","wilaya_id":"9", "ar_name":"بوعرفة", "longitude":"36.4151693", "latitude":"2.7284692"},
 {"id":"304","post_code":"09025","name":"Beni Mered","wilaya_id":"9", "ar_name":"بني مراد", "longitude":"36.5327654", "latitude":"2.8198593"},
 {"id":"305","post_code":"09026","name":"Bougara","wilaya_id":"9", "ar_name":"بوڨرة", "longitude":"36.4936597", "latitude":"2.9731862"},
 {"id":"306","post_code":"09027","name":"Guerrouaou","wilaya_id":"9", "ar_name":"ڨرواو", "longitude":"36.5019935", "latitude":"2.8148899"},
 {"id":"307","post_code":"09028","name":"Ain Romana","wilaya_id":"9", "ar_name":"عين الرمانة", "longitude":"36.3875985", "latitude":"2.5722144"},
 {"id":"308","post_code":"09029","name":"Djebabra","wilaya_id":"9", "ar_name":"جبابرة", "longitude":"36.5803885", "latitude":"3.2252592"},
 {"id":"309","post_code":"10001","name":"Bouira","wilaya_id":"10", "ar_name":"البويرة", "longitude":"36.3728066", "latitude":"3.8350413"},
 {"id":"310","post_code":"10002","name":"El Asnam","wilaya_id":"10", "ar_name":"الأصنام", "longitude":"36.3709809", "latitude":"3.8941923"},
 {"id":"311","post_code":"10003","name":"Guerrouma","wilaya_id":"10", "ar_name":"قرومة", "longitude":"36.4678041", "latitude":"3.3603546"},
 {"id":"312","post_code":"10004","name":"Souk El Khemis","wilaya_id":"10", "ar_name":"سوق الخميس", "longitude":"36.3941664", "latitude":"3.5550187"},
 {"id":"313","post_code":"10005","name":"Kadiria","wilaya_id":"10", "ar_name":"قادرية", "longitude":"36.5253163", "latitude":"3.5963676"},
 {"id":"314","post_code":"10006","name":"Hanif","wilaya_id":"10", "ar_name":"احنيف", "longitude":"36.2632628", "latitude":"4.0687934"},
 {"id":"315","post_code":"10007","name":"Dirah","wilaya_id":"10", "ar_name":"ديــرة", "longitude":"36.0038981", "latitude":"3.5835066"},
 {"id":"316","post_code":"10008","name":"Ait Laaziz","wilaya_id":"10", "ar_name":"آيت لعزيز", "longitude":"36.4453381", "latitude":"3.8484757"},
 {"id":"317","post_code":"10009","name":"Taghzout","wilaya_id":"10", "ar_name":"تاغزوت", "longitude":"36.4161178", "latitude":"3.9036414"},
 {"id":"318","post_code":"10010","name":"Raouraoua","wilaya_id":"10", "ar_name":"الروراوة", "longitude":"36.2168126", "latitude":"3.5492681"},
 {"id":"319","post_code":"10011","name":"Mezdour","wilaya_id":"10", "ar_name":"مسدور", "longitude":"36.0722819", "latitude":"3.923954"},
 {"id":"320","post_code":"10012","name":"Haizer","wilaya_id":"10", "ar_name":"حيزر", "longitude":"36.4068708", "latitude":"3.9487242"},
 {"id":"321","post_code":"10013","name":"Lakhdaria","wilaya_id":"10", "ar_name":"الأخضرية", "longitude":"36.5613265", "latitude":"3.5173819"},
 {"id":"322","post_code":"10014","name":"Maala","wilaya_id":"10", "ar_name":"معالة", "longitude":"36.4945576", "latitude":"3.4880279"},
 {"id":"323","post_code":"10015","name":"El Hachimia","wilaya_id":"10", "ar_name":"الھاشمية", "longitude":"36.2227385", "latitude":"3.7198058"},
 {"id":"324","post_code":"10016","name":"Aomar","wilaya_id":"10", "ar_name":"أعمر", "longitude":"36.5022135", "latitude":"3.7122176"},
 {"id":"325","post_code":"10017","name":"Chorfa","wilaya_id":"10", "ar_name":"الشرفاء", "longitude":"36.3782491", "latitude":"4.3082238"},
 {"id":"326","post_code":"10018","name":"Bordj Oukhriss","wilaya_id":"10", "ar_name":"برج أوخريص", "longitude":"36.09281", "latitude":"3.8468001"},
 {"id":"327","post_code":"10019","name":"El Adjiba","wilaya_id":"10", "ar_name":"العجيبة", "longitude":"36.3723036", "latitude":"4.0139476"},
 {"id":"328","post_code":"10020","name":"El Hakimia","wilaya_id":"10", "ar_name":"الحاكمية", "longitude":"36.0907204", "latitude":"3.72668"},
 {"id":"329","post_code":"10021","name":"El Khebouzia","wilaya_id":"10", "ar_name":"الخبوزية", "longitude":"36.3091266", "latitude":"3.5599129"},
 {"id":"330","post_code":"10022","name":"Ahl El Ksar","wilaya_id":"10", "ar_name":"أھل القصر", "longitude":"36.2426022", "latitude":"3.9606117"},
 {"id":"331","post_code":"10023","name":"Bouderbala","wilaya_id":"10", "ar_name":"بودربالة", "longitude":"36.5662885", "latitude":"3.4137415"},
 {"id":"332","post_code":"10024","name":"Zbarbar","wilaya_id":"10", "ar_name":"زبربر", "longitude":"36.4732903", "latitude":"3.4459708"},
 {"id":"333","post_code":"10025","name":"Ain El Hadjar","wilaya_id":"10", "ar_name":"عين الحجر", "longitude":"36.3598252", "latitude":"3.7160585"},
 {"id":"334","post_code":"10026","name":"Djebahia","wilaya_id":"10", "ar_name":"الجباحية", "longitude":"36.4603324", "latitude":"3.6520932"},
 {"id":"335","post_code":"10027","name":"Aghbalou","wilaya_id":"10", "ar_name":"أغبالو", "longitude":"36.4259787", "latitude":"4.2679284"},
 {"id":"336","post_code":"10028","name":"Taguedit","wilaya_id":"10", "ar_name":"تاڨديت", "longitude":"35.9534858", "latitude":"3.7969676"},
 {"id":"337","post_code":"10029","name":"Ain Turk","wilaya_id":"10", "ar_name":"عين الترك", "longitude":"36.4049144", "latitude":"3.7447465"},
 {"id":"338","post_code":"10030","name":"Saharidj","wilaya_id":"10", "ar_name":"الصهاريج", "longitude":"36.4310532", "latitude":"4.1825268"},
 {"id":"339","post_code":"10031","name":"Dechmia","wilaya_id":"10", "ar_name":"الدشمية", "longitude":"36.1366443", "latitude":"3.5034345"},
 {"id":"340","post_code":"10032","name":"Ridane","wilaya_id":"10", "ar_name":"ريدان", "longitude":"36.0701573", "latitude":"3.399751"},
 {"id":"341","post_code":"10033","name":"Bechloul","wilaya_id":"10", "ar_name":"بشلول", "longitude":"36.3745093", "latitude":"3.9607305"},
 {"id":"342","post_code":"10034","name":"Boukram","wilaya_id":"10", "ar_name":"بوكرام", "longitude":"36.5178782", "latitude":"3.2987712"},
 {"id":"343","post_code":"10035","name":"Ain Bessam","wilaya_id":"10", "ar_name":"عين بسام", "longitude":"36.3364461", "latitude":"3.5562554"},
 {"id":"344","post_code":"10036","name":"Bir Ghbalou","wilaya_id":"10", "ar_name":"بئر غبالو", "longitude":"36.268461", "latitude":"3.5073827"},
 {"id":"345","post_code":"10037","name":"Mchedallah","wilaya_id":"10", "ar_name":"مشدا الله", "longitude":"36.3633061", "latitude":"4.1871831"}
]
